[
    {"city": "Amsterdam", "lat": 52.3676, "lng": 4.9041},
    {"city": "Berlin", "lat": 52.5200, "lng": 13.4050},
    {"city": "Cairo", "lat": 30.0444, "lng": 31.2357},
    {"city": "Dubai", "lat": 25.2048, "lng": 55.2708},
    {"city": "Edinburgh", "lat": 55.9533, "lng": -3.1883},
    {"city": "New York", "lat": 40.7128, "lng": -74.0060},
    {"city": "Paris", "lat": 48.8566, "lng": 2.3522},
    {"city": "London", "lat": 51.5074, "lng": -0.1278},
    {"city": "Tokyo", "lat": 35.6762, "lng": 139.6503},
    {"city": "Sydney", "lat": -33.8688, "lng": 151.2093},
    {"city": "San Francisco", "lat": 37.7749, "lng": -122.4194},
    {"city": "Rio de Janeiro", "lat": -22.9068, "lng": -43.1729},
    {"city": "Toronto", "lat": 43.65107, "lng": -79.347015},
    {"city": "Los Angeles", "lat": 34.0522, "lng": -118.2437},
    {"city": "Madrid", "lat": 40.4168, "lng": -3.7038},
    {"city": "Moscow", "lat": 55.7558, "lng": 37.6173},
    {"city": "Hong Kong", "lat": 22.3193, "lng": 114.1694},
    {"city": "Singapore", "lat": 1.3521, "lng": 103.8198},
    {"city": "Bangkok", "lat": 13.7563, "lng": 100.5018},
    {"city": "Beijing", "lat": 39.9042, "lng": 116.4074},
    {"city": "Cape Town", "lat": -33.9249, "lng": 18.4241},
    {"city": "Berlin", "lat": 52.5200, "lng": 13.4050},
    {"city": "Buenos Aires", "lat": -34.6037, "lng": -58.3816},
    {"city": "Seoul", "lat": 37.5665, "lng": 126.9780},
    {"city": "Dubai", "lat": 25.276987, "lng": 55.296249},
    {"city": "Los Angeles", "lat": 34.0522, "lng": -118.2437},
    {"city": "Sydney", "lat": -33.8688, "lng": 151.2093},
    {"city": "Lagos", "lat": 6.5244, "lng": 3.3792},
    {"city": "Shanghai", "lat": 31.2304, "lng": 121.4737},
    {"city": "Mumbai", "lat": 19.0760, "lng": 72.8777},
    {"city": "Seoul", "lat": 37.5665, "lng": 126.9780},
    {"city": "Mexico City", "lat": 19.4326, "lng": -99.1332},
    {"city": "Jakarta", "lat": -6.2088, "lng": 106.8456},
    {"city": "Istanbul", "lat": 41.0082, "lng": 28.9784},
    {"city": "Paris", "lat": 48.8566, "lng": 2.3522},
    {"city": "Rome", "lat": 41.9028, "lng": 12.4964},
    {"city": "Vienna", "lat": 48.2082, "lng": 16.3738},
    {"city": "Lagos", "lat": 6.5244, "lng": 3.3792},
    {"city": "Bangalore", "lat": 12.9716, "lng": 77.5946},
    {"city": "Kuala Lumpur", "lat": 3.1390, "lng": 101.6869},
    {"city": "Karachi", "lat": 24.8607, "lng": 67.0011},
    {"city": "Mexico City", "lat": 19.4326, "lng": -99.1332},
    {"city": "San Paulo", "lat": -23.5505, "lng": -46.6333},
    {"city": "Lagos", "lat": 6.5244, "lng": 3.3792},
    {"city": "Milan", "lat": 45.4642, "lng": 9.1900},
    {"city": "Cairo", "lat": 30.0444, "lng": 31.2357},
    {"city": "Lagos", "lat": 6.5244, "lng": 3.3792},
    {"city": "Buenos Aires", "lat": -34.6037, "lng": -58.3816},
    {"city": "Rio de Janeiro", "lat": -22.9068, "lng": -43.1729},
    {"city": "Mumbai", "lat": 19.0760, "lng": 72.8777},
    {"city": "Dubai", "lat": 25.276987, "lng": 55.296249},
    {"city": "Shanghai", "lat": 31.2304, "lng": 121.4737},
    {"city": "Lagos", "lat": 6.5244, "lng": 3.3792},
    {"city": "Paris", "lat": 48.8566, "lng": 2.3522},
    {"city": "San Francisco", "lat": 37.7749, "lng": -122.4194},
    {"city": "Tokyo", "lat": 35.6762, "lng": 139.6503},
    {"city": "Bangkok", "lat": 13.7563, "lng": 100.5018},
    {"city": "Bangalore", "lat": 12.9716, "lng": 77.5946},
    {"city": "Chicago", "lat": 41.8781, "lng": -87.6298},
    {"city": "Jakarta", "lat": -6.2088, "lng": 106.8456},
    {"city": "Nairobi", "lat": -1.2864, "lng": 36.8172},
    {"city": "Lagos", "lat": 6.5244, "lng": 3.3792},
    {"city": "Lima", "lat": -12.0464, "lng": -77.0428},
    {"city": "Ho Chi Minh City", "lat": 10.8231, "lng": 106.6297},
    {"city": "Bangkok", "lat": 13.7563, "lng": 100.5018},
    {"city": "Hong Kong", "lat": 22.3193, "lng": 114.1694},
    {"city": "Jakarta", "lat": -6.2088, "lng": 106.8456},
    {"city": "Seoul", "lat": 37.5665, "lng": 126.9780},
    {"city": "Kuala Lumpur", "lat": 3.1390, "lng": 101.6869},
    {"city": "Mumbai", "lat": 19.0760, "lng": 72.8777},
    {"city": "Los Angeles", "lat": 34.0522, "lng": -118.2437},
    {"city": "London", "lat": 51.5074, "lng": -0.1278},
    {"city": "San Diego", "lat": 32.7157, "lng": -117.1611},
    {"city": "Johannesburg", "lat": -26.2041, "lng": 28.0473},
    {"city": "Mumbai", "lat": 19.0760, "lng": 72.8777},
    {"city": "Paris", "lat": 48.8566, "lng": 2.3522},
    {"city": "Jakarta", "lat": -6.2088, "lng": 106.8456}
]
